City_ID,City,Country,Date,Lat,Lng,Max Temp,Humidity,Cloudiness,Wind Speed,Current description,Rain (last 3 hrs),Snow (last 3 hrs)
0,Ushuaia,AR,2020-04-19 01:11:30,-54.8,-68.3,48.2,57,40,10.29,scattered clouds,0,0
1,Punta Arenas,CL,2020-04-19 01:08:30,-53.15,-70.92,46.4,65,40,19.46,scattered clouds,0,0
2,Bredasdorp,ZA,2020-04-19 01:09:26,-34.53,20.04,46.4,93,68,3.36,broken clouds,0,0
3,Mataura,NZ,2020-04-19 01:11:32,-46.19,168.86,55.99,65,67,8.99,broken clouds,0,0
4,Vardo,NO,2020-04-19 01:09:20,70.37,31.11,36.88,81,98,18.16,overcast clouds,0,0
5,Port Alfred,ZA,2020-04-19 01:09:05,-33.59,26.89,62.01,86,0,5.01,clear sky,0,0
6,Kodiak,US,2020-04-19 01:11:33,57.79,-152.41,46.4,75,40,9.17,scattered clouds,0,0
7,Hobart,AU,2020-04-19 01:07:55,-42.88,147.33,55.99,71,75,5.82,broken clouds,0,0
8,Touros,BR,2020-04-19 01:11:34,-5.2,-35.46,78.8,94,75,2.24,broken clouds,0,0
9,Markova,UA,2020-04-19 01:11:34,48.68,24.41,37.56,62,49,0.87,scattered clouds,0,0
10,Saint-Philippe,RE,2020-04-19 01:11:36,-21.36,55.77,73.4,78,25,6.93,light rain,0,0
11,East London,ZA,2020-04-19 01:11:36,-33.02,27.91,69.13,67,0,16.78,clear sky,0,0
12,Salina,US,2020-04-19 01:08:53,38.84,-97.61,62.6,36,1,16.11,clear sky,0,0
13,Affery,CI,2020-04-19 01:11:37,6.32,-3.96,75.83,94,94,2.86,overcast clouds,0,0
14,Bilma,NE,2020-04-19 01:11:38,18.69,12.92,82.87,13,6,6.38,clear sky,0,0
15,Kahului,US,2020-04-19 01:08:43,20.89,-156.47,84.2,51,20,16.11,few clouds,0,0
16,Buala,SB,2020-04-19 01:11:39,-8.14,159.59,83.8,71,51,2.24,broken clouds,0,0
17,Camacha,PT,2020-04-19 01:11:39,33.08,-16.33,60.8,77,20,9.17,few clouds,0,0
18,Nome,US,2020-04-19 01:09:43,64.5,-165.41,35.01,100,90,6.93,overcast clouds,0,0
19,Kapaa,US,2020-04-19 01:11:41,22.08,-159.32,78.8,65,1,9.17,clear sky,0,0
20,Rikitea,PF,2020-04-19 01:10:13,-23.12,-134.97,77.41,70,42,5.93,scattered clouds,0,0
21,Hilo,US,2020-04-19 01:09:18,19.73,-155.09,82.4,54,20,10.29,few clouds,0,0
22,Port Elizabeth,ZA,2020-04-19 01:10:23,-33.92,25.57,59.0,100,0,3.36,clear sky,0,0
23,Waitati,NZ,2020-04-19 01:11:43,-45.75,170.57,59.0,43,72,7.0,broken clouds,0,0
24,Arinos,BR,2020-04-19 01:11:21,-15.92,-46.11,71.29,80,35,3.24,light rain,0,0
25,Mar Del Plata,AR,2020-04-19 01:09:14,-38.0,-57.56,64.99,88,24,9.17,few clouds,0,0
26,Albany,US,2020-04-19 01:07:53,42.6,-73.97,42.01,45,57,1.01,broken clouds,0,0
27,Hami,CN,2020-04-19 01:11:45,42.8,93.45,61.34,22,83,9.44,broken clouds,0,0
28,Nanortalik,GL,2020-04-19 01:09:37,60.14,-45.24,28.76,92,89,5.21,light snow,0,0
29,Upernavik,GL,2020-04-19 01:11:46,72.79,-56.15,22.95,90,99,14.5,overcast clouds,0,0
30,Noumea,NC,2020-04-19 01:10:13,-22.28,166.46,87.8,48,57,10.29,broken clouds,0,0
31,Tuatapere,NZ,2020-04-19 01:11:47,-46.13,167.68,55.99,65,47,8.99,light rain,0,0
32,Nouadhibou,MR,2020-04-19 01:11:47,20.93,-17.03,66.2,82,0,12.75,clear sky,0,0
33,Fairbanks,US,2020-04-19 01:07:27,64.84,-147.72,44.6,100,90,2.01,overcast clouds,0,0
34,Provideniya,RU,2020-04-19 01:11:48,64.38,-173.3,23.22,95,100,14.14,light snow,0,0
35,Padang,ID,2020-04-19 01:11:49,-0.95,100.35,78.55,78,85,4.23,light rain,0,0
36,Split,HR,2020-04-19 01:11:49,43.51,16.44,57.2,58,81,5.82,broken clouds,0,0
37,Jiaocheng,CN,2020-04-19 01:11:50,24.68,116.14,76.8,70,45,2.28,scattered clouds,0,0
38,Mezen,RU,2020-04-19 01:11:51,65.85,44.24,30.92,99,96,5.12,overcast clouds,0,0
39,Avera,US,2020-04-19 01:11:51,33.19,-82.53,66.2,39,1,4.7,clear sky,0,0
40,Kavieng,PG,2020-04-19 01:11:52,-2.57,150.8,83.07,74,98,4.45,light rain,0,0
41,Norman Wells,CA,2020-04-19 01:11:53,65.28,-126.83,37.4,86,90,17.22,light rain,0,0
42,Fortuna,US,2020-04-19 01:11:54,40.6,-124.16,57.99,71,90,8.05,overcast clouds,0,0
43,Jawa,JO,2020-04-19 01:11:54,31.85,35.94,62.6,82,0,4.07,clear sky,0,0
44,Busselton,AU,2020-04-19 01:11:55,-33.65,115.33,63.0,83,80,22.12,light rain,0,0
45,Margate,GB,2020-04-19 01:11:55,51.38,1.39,48.0,71,1,5.01,clear sky,0,0
46,Kendari,ID,2020-04-19 01:11:56,-3.94,122.5,80.46,87,96,2.19,light rain,0,0
47,Jamestown,US,2020-04-19 01:11:56,42.1,-79.24,43.0,55,1,6.93,clear sky,0,0
48,Bogatyye Saby,RU,2020-04-19 01:11:57,56.01,50.45,32.31,88,16,6.98,few clouds,0,0
49,Mogadishu,SO,2020-04-19 01:07:20,2.04,45.34,83.19,76,90,9.31,light rain,0,0
50,Chota,PE,2020-04-19 01:11:58,-6.55,-78.65,54.86,44,68,2.3,light rain,0,0
51,San Juan,AR,2020-04-19 01:11:17,-31.54,-68.54,75.22,30,0,1.03,clear sky,0,0
52,Esperance,AU,2020-04-19 01:11:04,-33.87,121.9,60.8,87,100,17.22,overcast clouds,0,0
53,Bluff,NZ,2020-04-19 01:11:59,-46.6,168.33,55.99,65,98,8.99,light rain,0,0
54,Kaitangata,NZ,2020-04-19 01:11:59,-46.28,169.85,54.19,59,74,13.53,broken clouds,0,0
55,Livenka,RU,2020-04-19 01:12:00,50.45,38.3,36.75,74,2,3.78,clear sky,0,0
56,Longkou,CN,2020-04-19 01:12:01,37.65,120.33,51.78,78,100,6.8,light rain,0,0
57,Ilulissat,GL,2020-04-19 01:12:02,69.22,-51.1,24.8,62,99,18.34,light shower snow,0,0
58,Dingle,PH,2020-04-19 01:12:02,11.0,122.67,83.16,71,1,12.06,clear sky,0,0
59,Saint-Augustin,CA,2020-04-19 01:12:02,51.23,-58.65,25.12,92,43,12.71,scattered clouds,0,0
60,Jiangyou,CN,2020-04-19 01:12:04,31.77,104.72,62.06,60,26,0.78,scattered clouds,0,0
61,Mahebourg,MU,2020-04-19 01:09:38,-20.41,57.7,75.0,85,34,7.0,scattered clouds,0,0
62,Klaksvik,FO,2020-04-19 01:12:05,62.23,-6.59,42.8,81,0,9.17,clear sky,0,0
63,Osinniki,RU,2020-04-19 01:12:06,53.62,87.36,38.34,65,0,6.29,clear sky,0,0
64,Grindavik,IS,2020-04-19 01:12:06,63.84,-22.43,37.4,100,90,5.82,light rain,0,0
65,Saskylakh,RU,2020-04-19 01:12:07,71.92,114.08,14.07,85,0,5.01,clear sky,0,0
66,Minggang,CN,2020-04-19 01:12:07,32.46,114.05,54.59,76,61,6.82,broken clouds,0,0
67,Nikolskoye,RU,2020-04-19 01:12:08,59.7,30.79,37.4,92,90,11.18,light intensity shower rain,0,0
68,Elhovo,BG,2020-04-19 01:12:08,42.17,26.57,48.2,76,5,4.7,clear sky,0,0
69,Souillac,MU,2020-04-19 01:12:09,-20.52,57.52,77.0,78,75,13.87,shower rain,0,0
70,Georgetown,MY,2020-04-19 01:12:09,5.41,100.34,84.2,94,20,3.36,few clouds,0,0
71,Barrow,US,2020-04-19 01:12:10,71.29,-156.79,8.6,71,1,12.75,clear sky,0,0
72,Yellowknife,CA,2020-04-19 01:12:11,62.46,-114.35,28.4,92,90,6.93,light snow,0,0
73,New Norfolk,AU,2020-04-19 01:12:11,-42.78,147.06,55.99,79,82,2.37,broken clouds,0,0
74,Dunedin,NZ,2020-04-19 01:08:07,-45.87,170.5,59.0,42,72,10.0,light rain,0,0
75,Gizo,SB,2020-04-19 01:12:13,-8.1,156.84,85.77,65,69,1.86,broken clouds,0,0
76,Tuktoyaktuk,CA,2020-04-19 01:12:13,69.45,-133.04,10.4,85,75,11.41,broken clouds,0,0
77,Pandan,PH,2020-04-19 01:12:17,14.05,124.17,81.95,76,58,10.18,broken clouds,0,0
78,Ugoofaaru,MV,2020-04-19 01:12:17,5.67,73.0,85.82,74,3,10.47,light rain,0,0
79,Tsiroanomandidy,MG,2020-04-19 01:12:18,-18.77,46.03,63.0,67,29,2.44,scattered clouds,0,0
80,Pisco,PE,2020-04-19 01:12:19,-13.7,-76.22,69.8,77,22,18.34,few clouds,0,0
81,Bonthe,SL,2020-04-19 01:12:19,7.53,-12.51,79.65,81,100,10.11,overcast clouds,0,0
82,High Level,CA,2020-04-19 01:08:05,58.52,-117.14,53.6,32,75,11.41,broken clouds,0,0
83,Saint George,US,2020-04-19 01:12:21,37.1,-113.58,69.8,22,1,12.75,clear sky,0,0
84,Butaritari,KI,2020-04-19 01:12:21,3.07,172.79,83.46,77,97,18.12,light rain,0,0
85,Pedernales,DO,2020-04-19 01:12:22,18.04,-71.74,79.25,70,39,6.2,light rain,0,0
86,Carnarvon,AU,2020-04-19 01:12:22,-24.87,113.63,75.2,78,89,9.17,overcast clouds,0,0
87,Roma,US,2020-04-19 01:11:50,43.21,-75.46,36.0,55,1,3.24,clear sky,0,0
88,Tasiilaq,GL,2020-04-19 01:09:26,65.61,-37.64,30.2,92,100,20.8,light snow,0,0
89,Nechi,CO,2020-04-19 01:12:24,8.09,-74.78,78.3,85,89,2.95,moderate rain,0,0
90,Sur,OM,2020-04-19 01:12:24,22.57,59.53,81.45,53,28,8.3,scattered clouds,0,0
91,Kyren,RU,2020-04-19 01:12:25,51.68,102.14,30.38,66,91,8.23,snow,0,0
92,Honningsvag,NO,2020-04-19 01:12:25,70.98,25.97,39.79,92,99,15.7,light rain,0,0
93,Puerto Ayora,EC,2020-04-19 01:09:06,-0.74,-90.35,82.4,74,75,9.17,broken clouds,0,0
94,Andenes,NO,2020-04-19 01:12:27,69.31,16.12,39.2,100,96,19.46,overcast clouds,0,0
95,Puerto Del Rosario,ES,2020-04-19 01:12:29,28.5,-13.86,64.4,77,1,9.17,clear sky,0,0
96,Chokurdakh,RU,2020-04-19 01:12:30,70.63,147.92,-0.4,89,100,9.73,overcast clouds,0,0
97,Hamilton,US,2020-04-19 01:12:30,39.18,-84.53,51.01,46,1,8.05,clear sky,0,0
98,Hukuntsi,BW,2020-04-19 01:12:31,-24.0,21.75,70.25,36,11,8.19,few clouds,0,0
99,Meulaboh,ID,2020-04-19 01:07:39,4.14,96.13,78.93,83,80,5.32,light rain,0,0
100,Cape Town,ZA,2020-04-19 01:12:32,-33.93,18.42,57.2,76,77,2.24,broken clouds,0,0
101,Nizwa,OM,2020-04-19 01:12:32,22.93,57.53,76.33,42,51,0.69,broken clouds,0,0
102,Arraial Do Cabo,BR,2020-04-19 01:12:33,-22.97,-42.03,74.16,71,97,7.96,overcast clouds,0,0
103,Hithadhoo,MV,2020-04-19 01:09:22,-0.6,73.08,83.93,73,79,11.03,broken clouds,0,0
104,Itambe,BR,2020-04-19 01:12:34,-15.24,-40.62,69.8,80,98,5.68,light rain,0,0
105,Ushibuka,JP,2020-04-19 01:12:34,32.19,130.02,58.51,65,86,6.96,overcast clouds,0,0
106,Hermanus,ZA,2020-04-19 01:12:35,-34.42,19.23,64.99,53,94,2.01,overcast clouds,0,0
107,Avarua,CK,2020-04-19 01:08:20,-21.21,-159.78,82.4,69,70,6.93,broken clouds,0,0
108,Muzhi,RU,2020-04-19 01:12:35,65.37,64.67,33.12,96,100,3.49,overcast clouds,0,0
109,Dajal,PK,2020-04-19 01:12:36,29.56,70.38,75.25,45,87,4.99,overcast clouds,0,0
110,Tomatlan,MX,2020-04-19 01:12:36,19.93,-105.25,82.36,51,61,11.92,broken clouds,0,0
111,San Patricio,MX,2020-04-19 01:12:37,19.22,-104.7,78.8,83,20,11.41,few clouds,0,0
112,Rock Sound,BS,2020-04-19 01:07:44,24.9,-76.2,78.49,79,25,8.19,scattered clouds,0,0
113,Kloulklubed,PW,2020-04-19 01:12:37,7.04,134.26,82.4,83,75,8.05,broken clouds,0,0
114,Egvekinot,RU,2020-04-19 01:12:38,66.32,-179.17,9.12,89,100,20.85,light snow,0,0
115,Stepnogorsk,KZ,2020-04-19 01:12:38,52.35,71.89,48.88,58,77,3.51,broken clouds,0,0
116,Little Current,CA,2020-04-19 01:12:40,45.98,-81.92,43.0,60,75,17.22,broken clouds,0,0
117,Lompoc,US,2020-04-19 01:12:40,34.64,-120.46,59.0,62,90,12.75,overcast clouds,0,0
118,Fandriana,MG,2020-04-19 01:12:40,-20.23,47.38,58.53,62,84,2.82,light rain,0,0
119,Constitucion,CL,2020-04-19 01:12:41,-35.33,-72.42,59.36,92,69,11.05,broken clouds,0,0
120,Alquizar,CU,2020-04-19 01:12:41,22.81,-82.58,84.0,83,40,3.36,scattered clouds,0,0
121,Westport,US,2020-04-19 01:09:26,41.14,-73.36,42.8,75,90,6.93,overcast clouds,0,0
122,Yigou,CN,2020-04-19 01:12:42,35.81,114.32,55.02,69,90,4.43,overcast clouds,0,0
123,Bambous Virieux,MU,2020-04-19 01:12:43,-20.34,57.76,77.0,78,75,13.87,shower rain,0,0
124,Chapada Dos Guimaraes,BR,2020-04-19 01:12:43,-15.46,-55.75,75.2,88,75,5.82,thunderstorm with light rain,0,0
125,Richards Bay,ZA,2020-04-19 01:12:44,-28.78,32.04,72.57,78,48,8.99,light rain,0,0
126,Narsaq,GL,2020-04-19 01:12:44,60.92,-46.05,28.4,42,86,12.75,light snow,0,0
127,Boa Vista,BR,2020-04-19 01:12:44,2.82,-60.67,77.0,73,75,13.87,thunderstorm,0,0
128,Sungairaya,ID,2020-04-19 01:12:45,0.7,108.9,77.36,82,100,4.21,overcast clouds,0,0
129,Kadan,CZ,2020-04-19 01:12:46,50.38,13.27,46.99,94,100,1.01,moderate rain,0,0
130,Bairiki,KI,2020-04-19 01:12:46,1.33,172.98,86.0,79,40,6.93,scattered clouds,0,0
131,Kitgum,UG,2020-04-19 01:12:47,3.28,32.89,66.87,72,100,3.58,light rain,0,0
132,Tecoanapa,MX,2020-04-19 01:12:48,16.52,-98.75,84.13,64,54,8.14,broken clouds,0,0
133,Kabwe,ZM,2020-04-19 01:12:49,-14.45,28.45,61.38,63,0,6.02,clear sky,0,0
134,Khani,GE,2020-04-19 01:12:49,41.96,42.96,44.6,93,100,1.12,light rain,0,0
135,Korla,CN,2020-04-19 01:12:50,41.76,86.15,57.97,36,99,9.57,overcast clouds,0,0
136,Mata,PT,2020-04-19 01:12:50,40.68,-7.46,48.99,92,82,2.44,broken clouds,0,0
137,Carutapera,BR,2020-04-19 01:12:51,-1.2,-46.02,79.18,84,91,5.48,light rain,0,0
138,Torbay,CA,2020-04-19 01:12:51,47.67,-52.73,30.99,63,5,9.17,clear sky,0,0
139,Dikson,RU,2020-04-19 01:12:52,73.51,80.55,35.65,87,100,20.71,overcast clouds,0,0
140,Havoysund,NO,2020-04-19 01:12:56,71.0,24.66,35.6,100,100,24.16,light rain,0,0
141,Myaundzha,RU,2020-04-19 01:12:57,63.05,147.19,-0.22,76,100,9.55,overcast clouds,0,0
142,Bengkulu,ID,2020-04-19 01:08:24,-3.8,102.27,77.59,83,87,3.89,light rain,0,0
143,Lorengau,PG,2020-04-19 01:12:58,-2.02,147.27,84.83,69,10,2.62,clear sky,0,0
144,Sitka,US,2020-04-19 01:12:59,57.05,-135.33,53.6,71,20,4.7,few clouds,0,0
145,Saldanha,ZA,2020-04-19 01:12:59,-33.01,17.94,59.0,62,100,4.7,overcast clouds,0,0
146,Beringovskiy,RU,2020-04-19 01:13:00,63.05,179.32,20.89,96,100,17.2,light snow,0,0
147,Escanaba,US,2020-04-19 01:13:01,45.75,-87.06,55.4,79,90,11.41,overcast clouds,0,0
148,Bandar-E Lengeh,IR,2020-04-19 01:13:01,26.56,54.88,75.2,83,67,4.7,broken clouds,0,0
149,Marzuq,YE,2020-04-19 01:13:01,14.4,46.47,73.36,45,92,3.76,overcast clouds,0,0
150,Anadyr,RU,2020-04-19 01:09:24,64.75,177.48,15.8,85,90,35.79,snow,0,0
151,Rochester,US,2020-04-19 01:10:46,43.15,-77.62,45.0,51,40,10.29,scattered clouds,0,0
152,Lagos,NG,2020-04-19 01:13:03,6.58,3.75,84.2,83,20,3.36,few clouds,0,0
153,Ribeira Grande,PT,2020-04-19 01:13:03,38.52,-28.7,61.93,85,100,16.91,light rain,0,0
154,Praia,CV,2020-04-19 01:13:04,14.92,-23.51,71.6,60,40,17.22,scattered clouds,0,0
155,Caravelas,BR,2020-04-19 01:09:51,-17.71,-39.25,76.28,79,89,17.02,overcast clouds,0,0
156,Venado Tuerto,AR,2020-04-19 01:13:04,-33.75,-61.97,62.01,63,0,10.85,clear sky,0,0
157,Mae Hong Son,TH,2020-04-19 01:13:05,19.3,97.97,78.8,65,20,3.36,mist,0,0
158,Ponta Do Sol,PT,2020-04-19 01:13:05,32.67,-17.1,57.0,63,18,1.01,few clouds,0,0
159,Faya,SA,2020-04-19 01:13:06,18.39,42.45,62.6,87,20,2.77,few clouds,0,0
160,Saint-Michel-Des-Saints,CA,2020-04-19 01:08:27,46.68,-73.92,39.0,4,71,1.99,broken clouds,0,0
161,Mayo,US,2020-04-19 01:13:07,38.89,-76.51,48.0,49,1,3.36,clear sky,0,0
162,Faanui,PF,2020-04-19 01:09:40,-16.48,-151.75,82.78,74,25,10.63,light rain,0,0
163,Lubango,AO,2020-04-19 01:13:08,-14.92,13.49,59.36,53,15,3.67,few clouds,0,0
164,Kavaratti,IN,2020-04-19 01:13:08,10.57,72.64,84.6,71,9,5.79,clear sky,0,0
165,Pemba,MZ,2020-04-19 01:13:09,-12.97,40.52,76.23,88,40,13.27,light rain,0,0
166,Labrea,BR,2020-04-19 01:13:10,-7.26,-64.8,75.25,84,30,2.86,light rain,0,0
167,Geraldton,AU,2020-04-19 01:13:10,-28.77,114.6,69.8,94,75,6.93,broken clouds,0,0
168,Gat,IL,2020-04-19 01:12:05,31.61,34.76,61.0,20,0,5.46,clear sky,0,0
169,Pangnirtung,CA,2020-04-19 01:09:26,66.15,-65.71,4.26,86,99,4.23,overcast clouds,0,0
170,Vanimo,PG,2020-04-19 01:13:11,-2.67,141.3,84.67,72,95,4.07,light rain,0,0
171,Luanda,AO,2020-04-19 01:08:30,-8.84,13.23,77.0,94,75,3.36,broken clouds,0,0
172,Palu,ID,2020-04-19 01:13:13,-0.89,119.87,83.08,67,84,2.19,light rain,0,0
173,Lebu,CL,2020-04-19 01:13:07,-37.62,-73.65,54.91,90,57,1.86,broken clouds,0,0
174,Occhiobello,IT,2020-04-19 01:13:14,44.92,11.58,55.99,78,70,2.93,broken clouds,0,0
175,Te Anau,NZ,2020-04-19 01:13:14,-45.42,167.72,47.91,71,95,9.75,light rain,0,0
176,Vaini,TO,2020-04-19 01:13:14,-21.2,-175.2,82.4,69,40,12.75,scattered clouds,0,0
177,Robinson,US,2020-04-19 01:09:25,31.47,-97.11,62.6,77,90,5.46,overcast clouds,0,0
178,Port Lincoln,AU,2020-04-19 01:13:15,-34.73,135.87,62.51,63,63,16.31,broken clouds,0,0
179,The Valley,AI,2020-04-19 01:13:16,18.22,-63.06,80.6,78,40,10.29,scattered clouds,0,0
180,Yar-Sale,RU,2020-04-19 01:13:16,66.83,70.83,34.25,98,100,11.27,light rain,0,0
181,Bridlington,GB,2020-04-19 01:13:16,54.08,-0.19,37.4,100,31,3.36,scattered clouds,0,0
182,Tabou,CI,2020-04-19 01:13:17,4.42,-7.35,79.34,86,100,7.83,light rain,0,0
183,Dali,CN,2020-04-19 01:13:17,25.7,100.18,53.56,43,3,3.56,clear sky,0,0
184,Severo-Kurilsk,RU,2020-04-19 01:13:18,50.68,156.12,34.54,89,22,13.94,few clouds,0,0
185,Sechura,PE,2020-04-19 01:13:19,-5.56,-80.82,75.92,69,0,14.52,clear sky,0,0
186,Dubovyy Umet,RU,2020-04-19 01:13:19,52.98,50.29,32.0,81,10,6.71,clear sky,0,0
187,Vestmanna,FO,2020-04-19 01:13:19,62.16,-7.17,42.8,81,0,9.17,clear sky,0,0
188,Jalu,LY,2020-04-19 01:13:20,29.03,21.55,65.75,38,0,9.24,clear sky,0,0
189,Yashan,CN,2020-04-19 01:13:22,22.2,109.94,75.96,87,90,8.41,overcast clouds,0,0
190,Sinnamary,GF,2020-04-19 01:13:22,5.38,-52.95,80.01,84,67,10.65,broken clouds,0,0
191,Atar,MR,2020-04-19 01:13:23,20.52,-13.05,70.27,23,0,9.75,clear sky,0,0
192,Mount Gambier,AU,2020-04-19 01:09:55,-37.83,140.77,53.6,93,90,5.82,overcast clouds,0,0
193,Iskateley,RU,2020-04-19 01:13:23,67.68,53.15,28.8,98,100,3.98,overcast clouds,0,0
194,Medford,US,2020-04-19 01:13:24,42.33,-122.88,63.0,39,1,17.22,clear sky,0,0
195,Pokhara,NP,2020-04-19 01:12:09,28.23,83.98,61.05,32,49,3.13,scattered clouds,0,0
196,Thompson,CA,2020-04-19 01:13:26,55.74,-97.86,17.6,37,20,8.05,few clouds,0,0
197,Waddan,LY,2020-04-19 01:13:29,29.16,16.14,67.5,32,21,11.83,few clouds,0,0
198,Barcelona,ES,2020-04-19 01:13:07,41.39,2.16,61.0,93,40,9.17,moderate rain,0,0
199,Cabo San Lucas,MX,2020-04-19 01:09:49,22.89,-109.91,73.99,64,5,14.99,clear sky,0,0
200,Usakos,NA,2020-04-19 01:13:30,-22.0,15.6,78.84,24,68,5.44,broken clouds,0,0
201,Cherskiy,RU,2020-04-19 01:13:30,68.75,161.3,7.32,88,22,8.97,few clouds,0,0
202,Chicama,PE,2020-04-19 01:13:32,-7.84,-79.15,74.01,71,23,6.58,few clouds,0,0
203,Bokoro,TD,2020-04-19 01:13:34,12.38,17.06,82.33,12,34,9.78,scattered clouds,0,0
204,Namatanai,PG,2020-04-19 01:13:38,-3.67,152.43,83.41,75,95,7.99,light rain,0,0
205,Hit,IQ,2020-04-19 01:13:38,33.64,42.83,71.83,36,0,2.19,clear sky,0,0
206,Clyde River,CA,2020-04-19 01:13:39,70.47,-68.59,8.6,78,90,10.29,light snow,0,0
207,Kruisfontein,ZA,2020-04-19 01:13:40,-34.0,24.73,65.39,36,0,6.62,clear sky,0,0
208,Puerto Madero,MX,2020-04-19 01:13:40,14.72,-92.42,87.8,62,75,5.82,broken clouds,0,0
209,Havre-Saint-Pierre,CA,2020-04-19 01:13:41,50.23,-63.6,30.2,68,1,9.17,clear sky,0,0
210,Along,IN,2020-04-19 01:13:43,28.17,94.77,65.66,69,82,2.33,light rain,0,0
211,Bathsheba,BB,2020-04-19 01:09:22,13.22,-59.52,80.6,69,40,16.11,scattered clouds,0,0
212,Airai,TL,2020-04-19 01:09:19,-8.93,125.41,68.7,49,47,3.65,scattered clouds,0,0
213,Atuona,PF,2020-04-19 01:13:44,-9.8,-139.03,82.17,71,94,17.22,overcast clouds,0,0
214,Mirnyy,RU,2020-04-19 01:13:45,62.54,113.96,17.6,40,70,6.71,broken clouds,0,0
215,Thinadhoo,MV,2020-04-19 01:13:45,0.53,72.93,83.62,76,87,11.9,overcast clouds,0,0
216,Coahuayana,MX,2020-04-19 01:13:45,18.73,-103.68,84.2,45,20,11.41,few clouds,0,0
217,Maningrida,AU,2020-04-19 01:13:46,-12.07,134.27,81.21,73,100,5.1,overcast clouds,0,0
218,Nelson Bay,AU,2020-04-19 01:13:46,-32.72,152.15,73.0,59,11,5.82,light rain,0,0
219,Chuy,UY,2020-04-19 01:13:47,-33.7,-53.46,64.33,86,10,9.44,clear sky,0,0
220,Nantucket,US,2020-04-19 01:12:58,41.28,-70.1,39.99,86,90,23.04,overcast clouds,0,0
221,Saint Anthony,US,2020-04-19 01:13:48,45.02,-93.22,59.0,41,20,14.99,few clouds,0,0
222,Port Blair,IN,2020-04-19 01:13:48,11.67,92.75,83.28,74,17,6.06,few clouds,0,0
223,Abu Samrah,SY,2020-04-19 01:10:44,35.3,37.18,62.44,53,7,3.58,clear sky,0,0
224,Khatanga,RU,2020-04-19 01:13:49,71.97,102.5,14.09,94,0,4.61,clear sky,0,0
225,Castro,BR,2020-04-19 01:09:47,-24.79,-50.01,56.71,69,47,6.08,scattered clouds,0,0
226,Alugan,PH,2020-04-19 01:13:50,12.22,125.48,82.78,74,14,12.55,few clouds,0,0
227,Merauke,ID,2020-04-19 01:09:28,-8.47,140.33,83.35,75,100,8.79,overcast clouds,0,0
228,Searcy,US,2020-04-19 01:13:51,35.25,-91.74,55.0,66,1,3.74,clear sky,0,0
229,Northam,GB,2020-04-19 01:13:51,51.03,-4.22,51.01,95,63,3.0,broken clouds,0,0
230,Qaanaaq,GL,2020-04-19 01:13:17,77.48,-69.36,21.69,88,100,19.26,overcast clouds,0,0
231,Iqaluit,CA,2020-04-19 01:09:47,63.75,-68.51,1.4,64,20,5.82,few clouds,0,0
232,Camana,PE,2020-04-19 01:13:53,-16.62,-72.71,70.97,72,42,6.33,scattered clouds,0,0
233,Zhezkazgan,KZ,2020-04-19 01:13:53,47.8,67.71,52.36,49,61,7.07,broken clouds,0,0
234,Loreto,MX,2020-04-19 01:13:53,22.27,-101.97,80.11,14,98,12.86,overcast clouds,0,0
235,Killybegs,IE,2020-04-19 01:09:42,54.63,-8.45,46.0,83,58,4.0,broken clouds,0,0
236,Alofi,NU,2020-04-19 01:13:54,-19.06,-169.92,84.2,70,34,16.11,light rain,0,0
237,Leningradskiy,RU,2020-04-19 01:12:49,69.38,178.42,5.61,88,4,8.75,clear sky,0,0
238,Inuvik,CA,2020-04-19 01:13:55,68.35,-133.72,23.0,67,90,9.17,light snow,0,0
239,Victoria,HK,2020-04-19 01:10:27,22.29,114.16,79.0,74,76,5.99,broken clouds,0,0
240,Lasa,IT,2020-04-19 01:13:57,46.62,10.7,50.0,71,5,6.93,clear sky,0,0
241,Tura,IN,2020-04-19 01:13:57,25.52,90.22,67.08,86,6,3.15,light rain,0,0
242,Salym,RU,2020-04-19 01:13:58,60.06,71.48,42.94,84,99,7.76,overcast clouds,0,0
243,Embu,BR,2020-04-19 01:13:59,-23.65,-46.85,63.0,77,40,10.29,scattered clouds,0,0
244,Sibolga,ID,2020-04-19 01:14:00,1.74,98.78,77.61,79,79,3.76,light rain,0,0
245,Nouakchott,MR,2020-04-19 01:09:46,18.09,-15.98,66.2,88,0,8.05,clear sky,0,0
246,Mareeba,AU,2020-04-19 01:14:01,-17.0,145.43,88.0,77,33,1.99,light rain,0,0
247,Sao Felix Do Xingu,BR,2020-04-19 01:14:01,-6.64,-51.99,74.16,87,65,1.23,light rain,0,0
248,Babu,CN,2020-04-19 01:14:02,24.42,111.52,72.77,84,100,2.71,light rain,0,0
249,College,US,2020-04-19 01:14:02,64.86,-147.8,44.6,87,90,3.36,overcast clouds,0,0
250,Yaan,NG,2020-04-19 01:14:03,7.38,8.57,81.7,68,79,11.07,broken clouds,0,0
251,Mangai,CD,2020-04-19 01:14:04,-4.05,19.53,71.64,87,100,2.57,light rain,0,0
252,San Andres,CO,2020-04-19 01:14:05,12.58,-81.7,82.4,74,20,10.29,few clouds,0,0
253,Villazon,BO,2020-04-19 01:14:06,-22.09,-65.59,50.38,21,25,5.88,scattered clouds,0,0
254,Itapirapua,BR,2020-04-19 01:14:06,-15.82,-50.61,71.8,82,100,2.13,overcast clouds,0,0
255,Kaeo,NZ,2020-04-19 01:14:07,-35.1,173.78,70.0,79,91,4.0,overcast clouds,0,0
256,Soe,ID,2020-04-19 01:14:07,-9.86,124.28,72.34,62,22,2.57,few clouds,0,0
257,Kununurra,AU,2020-04-19 01:09:25,-15.77,128.73,89.6,59,53,3.36,broken clouds,0,0
258,Vanavara,RU,2020-04-19 01:14:08,60.34,102.28,20.77,88,0,3.96,clear sky,0,0
259,Conde,BR,2020-04-19 01:14:09,-7.26,-34.91,78.8,94,20,3.15,few clouds,0,0
260,Povenets,RU,2020-04-19 01:14:09,62.85,34.83,32.47,94,100,7.09,light snow,0,0
261,Rovaniemi,FI,2020-04-19 01:14:09,66.5,25.72,30.2,86,20,6.93,few clouds,0,0
262,Lethem,GY,2020-04-19 01:14:10,3.38,-59.8,86.04,44,24,3.58,few clouds,0,0
263,Awjilah,LY,2020-04-19 01:14:10,29.11,21.29,64.26,44,0,9.19,clear sky,0,0
264,Acari,PE,2020-04-19 01:14:11,-15.43,-74.62,73.13,60,37,3.53,scattered clouds,0,0
265,Lakes Entrance,AU,2020-04-19 01:14:12,-37.88,147.98,57.99,66,68,3.0,broken clouds,0,0
266,Champasak,LA,2020-04-19 01:14:12,14.75,106.0,82.4,74,20,2.24,few clouds,0,0
267,Acapulco,MX,2020-04-19 01:14:12,16.86,-99.89,82.4,74,5,6.93,haze,0,0
268,Sao Joao De Pirabas,BR,2020-04-19 01:14:13,-0.77,-47.18,78.12,86,99,3.78,overcast clouds,0,0
269,Dhidhdhoo,MV,2020-04-19 01:14:16,6.88,73.1,86.45,70,27,10.54,scattered clouds,0,0
270,Amberley,US,2020-04-19 01:14:17,39.2,-84.43,51.01,53,1,4.7,clear sky,0,0
271,Oranjemund,NA,2020-04-19 01:14:17,-28.55,16.43,56.3,84,10,1.45,clear sky,0,0
272,Maarianhamina,AX,2020-04-19 01:14:18,60.1,19.93,41.0,81,0,6.93,clear sky,0,0
273,Kenai,US,2020-04-19 01:14:18,60.55,-151.26,51.8,87,90,10.29,overcast clouds,0,0
274,Portland,US,2020-04-19 01:09:48,45.52,-122.68,54.0,76,90,6.93,light rain,0,0
275,Longyearbyen,SJ,2020-04-19 01:13:05,78.22,15.64,28.4,86,74,2.24,broken clouds,0,0
276,Roald,NO,2020-04-19 01:14:20,62.58,6.13,37.4,93,7,4.7,clear sky,0,0
277,Guerrero Negro,MX,2020-04-19 01:14:20,27.98,-114.06,63.99,61,0,21.45,clear sky,0,0
278,Ambon,ID,2020-04-19 01:14:21,-3.7,128.18,87.8,66,40,4.7,scattered clouds,0,0
279,Taltal,CL,2020-04-19 01:14:21,-25.4,-70.48,63.61,71,19,4.97,few clouds,0,0
280,Santo Angelo,BR,2020-04-19 01:14:16,-28.3,-54.26,68.0,56,0,5.82,clear sky,0,0
281,Ketchikan,US,2020-04-19 01:14:22,55.34,-131.65,59.0,47,1,18.34,clear sky,0,0
282,Birao,CF,2020-04-19 01:14:23,10.28,22.79,77.32,14,95,0.83,overcast clouds,0,0
283,Vila Franca Do Campo,PT,2020-04-19 01:14:24,37.72,-25.43,62.6,93,75,12.75,broken clouds,0,0
284,Port-Gentil,GA,2020-04-19 01:14:24,-0.72,8.78,81.68,83,34,8.84,light rain,0,0
285,Kaohsiung,TW,2020-04-19 01:14:25,22.62,120.31,82.4,69,75,8.05,broken clouds,0,0
286,Nara,JP,2020-04-19 01:14:25,34.69,135.8,61.0,63,75,8.05,broken clouds,0,0
287,Izumo,JP,2020-04-19 01:14:26,35.37,132.77,55.4,76,75,2.24,broken clouds,0,0
288,Carauari,BR,2020-04-19 01:14:26,-4.88,-66.9,74.34,93,85,2.06,light rain,0,0
289,Miami,US,2020-04-19 01:12:50,25.77,-80.19,80.6,74,20,5.82,few clouds,0,0
290,Comodoro Rivadavia,AR,2020-04-19 01:11:42,-45.87,-67.5,66.2,37,71,12.75,broken clouds,0,0
291,Altamira,BR,2020-04-19 01:14:27,-3.2,-52.21,73.56,90,81,0.83,light rain,0,0
292,Viransehir,TR,2020-04-19 01:14:28,37.24,39.76,59.4,51,93,4.9,overcast clouds,0,0
293,Pula,HR,2020-04-19 01:14:01,44.87,13.85,44.6,87,99,4.7,overcast clouds,0,0
294,Kaliua,TZ,2020-04-19 01:14:29,-5.06,31.79,65.16,71,100,3.89,light rain,0,0
295,Nuuk,GL,2020-04-19 01:14:29,64.18,-51.72,24.8,100,100,21.92,heavy snow,0,0
296,Bethel,US,2020-04-19 01:10:22,41.37,-73.41,39.2,64,1,5.86,clear sky,0,0
297,Ust-Omchug,RU,2020-04-19 01:14:30,61.15,149.63,-1.8,78,96,11.7,overcast clouds,0,0
298,Severobaykalsk,RU,2020-04-19 01:14:30,55.65,109.32,18.16,79,13,14.09,few clouds,0,0
299,Shkoder,AL,2020-04-19 01:14:31,42.07,19.51,51.8,93,72,1.28,broken clouds,0,0
300,Aklavik,CA,2020-04-19 01:14:31,68.22,-135.01,23.0,67,90,9.17,light snow,0,0
301,Codrington,AU,2020-04-19 01:14:32,-38.27,141.97,56.35,75,55,10.51,broken clouds,0,0
302,Etchoropo,MX,2020-04-19 01:14:32,26.77,-109.67,80.01,44,5,8.01,clear sky,0,0
303,Charters Towers,AU,2020-04-19 01:14:11,-20.1,146.27,83.41,53,12,6.58,light rain,0,0
304,Ginda,IN,2020-04-19 01:14:34,30.69,78.49,48.33,32,54,6.55,broken clouds,0,0
305,Tautira,PF,2020-04-19 01:14:35,-17.73,-149.15,87.8,70,84,9.17,light rain,0,0
306,Mus,TR,2020-04-19 01:14:35,39.0,41.75,45.43,52,100,3.51,light rain,0,0
307,Benjamin Hill,MX,2020-04-19 01:14:35,30.17,-111.1,77.0,27,0,3.0,clear sky,0,0
308,Kupino,RU,2020-04-19 01:14:37,54.37,77.3,46.63,66,96,10.09,overcast clouds,0,0
309,Shangrao,CN,2020-04-19 01:14:37,28.45,117.97,70.59,86,99,4.65,moderate rain,0,0
310,Morant Bay,JM,2020-04-19 01:14:38,17.88,-76.41,84.2,70,40,9.17,scattered clouds,0,0
311,Plettenberg Bay,ZA,2020-04-19 01:14:38,-34.05,23.37,70.83,33,0,7.78,clear sky,0,0
312,Dharchula,IN,2020-04-19 01:14:39,29.85,80.53,54.99,28,2,8.19,clear sky,0,0
313,Rupert,US,2020-04-19 01:14:39,42.62,-113.68,64.4,10,1,13.87,clear sky,0,0
314,Tromso,NO,2020-04-19 01:14:40,69.65,18.96,39.2,86,90,13.87,light intensity drizzle,0,0
315,Hasaki,JP,2020-04-19 01:14:40,35.73,140.83,66.0,45,20,11.41,few clouds,0,0
316,Synya,RU,2020-04-19 01:14:41,65.37,58.04,27.43,97,93,2.19,overcast clouds,0,0
317,Grand Gaube,MU,2020-04-19 01:14:41,-20.01,57.66,77.0,78,75,13.87,shower rain,0,0
318,Calama,CL,2020-04-19 01:14:41,-22.47,-68.93,62.6,13,0,11.41,clear sky,0,0
319,Seoul,KR,2020-04-19 01:14:42,37.57,126.98,59.0,62,90,7.7,overcast clouds,0,0
320,Poum,NC,2020-04-19 01:14:42,-20.23,164.02,78.91,76,41,12.77,scattered clouds,0,0
321,Iralaya,HN,2020-04-19 01:14:43,15.0,-83.23,82.4,78,20,4.7,few clouds,0,0
322,Kedrovyy,RU,2020-04-19 01:14:43,56.17,91.82,35.6,59,10,6.71,clear sky,0,0
323,Tyrma,RU,2020-04-19 01:14:43,50.08,132.17,55.0,35,100,10.65,overcast clouds,0,0
324,Zhangye,CN,2020-04-19 01:14:47,38.93,100.45,54.95,22,43,1.34,scattered clouds,0,0
325,Maniitsoq,GL,2020-04-19 01:14:47,65.42,-52.9,24.64,96,100,18.79,light snow,0,0
326,Malartic,CA,2020-04-19 01:11:47,48.13,-78.13,41.0,44,75,10.29,broken clouds,0,0
327,Ilhabela,BR,2020-04-19 01:14:48,-23.78,-45.36,72.55,76,92,7.31,light rain,0,0
328,Harper,LR,2020-04-19 01:14:47,4.38,-7.72,80.28,84,100,8.84,light rain,0,0
329,Labuhan,ID,2020-04-19 01:14:52,-6.88,112.21,80.46,82,88,3.98,light rain,0,0
330,Bethanien,NA,2020-04-19 01:14:53,-26.5,17.16,64.78,19,0,0.87,clear sky,0,0
331,Matay,EG,2020-04-19 01:14:53,28.42,30.78,65.66,53,0,17.25,clear sky,0,0
332,Sulangan,PH,2020-04-19 01:14:54,11.14,123.72,82.65,74,9,10.67,clear sky,0,0
333,Buraydah,SA,2020-04-19 01:14:54,26.33,43.98,62.6,93,99,10.29,overcast clouds,0,0
334,Hofn,IS,2020-04-19 01:14:55,64.25,-15.21,45.39,88,99,14.23,light rain,0,0
335,Cidreira,BR,2020-04-19 01:14:38,-30.18,-50.21,67.68,82,0,12.75,clear sky,0,0
336,Tiksi,RU,2020-04-19 01:14:56,71.69,128.87,10.22,85,67,3.76,broken clouds,0,0
337,Manzanillo,CU,2020-04-19 01:14:56,20.34,-77.12,79.52,74,8,5.1,light rain,0,0
338,Raudeberg,NO,2020-04-19 01:14:57,61.99,5.14,41.0,75,2,4.7,clear sky,0,0
339,Ust-Kuyga,RU,2020-04-19 01:13:06,70.02,135.6,3.34,83,87,4.16,overcast clouds,0,0
340,Maple Creek,CA,2020-04-19 01:14:58,49.92,-109.48,41.5,44,98,10.33,overcast clouds,0,0
341,Sibu,MY,2020-04-19 01:14:07,2.3,111.82,77.0,88,75,10.29,light rain,0,0
342,Salalah,OM,2020-04-19 01:14:59,17.02,54.09,80.6,74,40,4.7,scattered clouds,0,0
343,Eyl,SO,2020-04-19 01:15:00,7.98,49.82,81.46,79,73,10.25,broken clouds,0,0
344,Naze,JP,2020-04-19 01:15:00,28.37,129.48,73.4,88,75,11.41,broken clouds,0,0
345,Berbera,SO,2020-04-19 01:15:01,10.44,45.01,84.15,75,76,11.43,moderate rain,0,0
346,Mamallapuram,IN,2020-04-19 01:15:01,12.63,80.17,84.0,88,40,3.36,scattered clouds,0,0
347,Komsomolskiy,UZ,2020-04-19 01:14:33,40.43,71.72,51.8,66,2,6.93,clear sky,0,0
348,Lata,PT,2020-04-19 01:15:03,40.16,-8.33,55.99,92,20,1.01,few clouds,0,0
349,Ndjole,GA,2020-04-19 01:15:04,-0.18,10.76,74.93,92,16,1.5,light rain,0,0
350,Kamaishi,JP,2020-04-19 01:14:43,39.27,141.88,53.6,62,40,23.04,scattered clouds,0,0
351,Qianan,CN,2020-04-19 01:15:05,44.99,124.06,63.41,26,100,20.45,overcast clouds,0,0
352,Sangar,RU,2020-04-19 01:13:24,63.92,127.47,12.31,77,0,0.85,clear sky,0,0
353,Leshukonskoye,RU,2020-04-19 01:15:06,64.9,45.76,31.32,98,77,2.75,broken clouds,0,0
354,San Carlos De Bariloche,AR,2020-04-19 01:15:06,-41.15,-71.31,53.6,62,40,26.4,scattered clouds,0,0
355,Chimbote,PE,2020-04-19 01:15:06,-9.09,-78.58,71.22,82,2,8.25,clear sky,0,0
356,Bilibino,RU,2020-04-19 01:15:07,68.05,166.44,7.61,79,64,5.95,broken clouds,0,0
357,Bahia Blanca,AR,2020-04-19 01:14:41,-38.72,-62.27,71.06,36,92,17.81,overcast clouds,0,0
358,Vestmannaeyjar,IS,2020-04-19 01:15:08,63.44,-20.27,45.41,93,100,14.79,light rain,0,0
359,Olinda,BR,2020-04-19 01:15:08,-8.01,-34.86,84.2,74,40,2.24,scattered clouds,0,0
360,Kargil,IN,2020-04-19 01:15:08,34.57,76.1,26.24,25,57,5.64,broken clouds,0,0
361,Adrar,MR,2020-04-19 01:14:36,20.5,-10.07,75.67,34,88,8.88,light rain,0,0
362,Skelleftea,SE,2020-04-19 01:15:09,64.75,20.95,28.99,92,9,6.93,clear sky,0,0
363,Saint-Georges,GD,2020-04-19 01:15:10,12.06,-61.75,80.6,74,20,9.17,few clouds,0,0
364,Cardenas,CU,2020-04-19 01:15:10,23.04,-81.2,86.0,58,20,6.93,few clouds,0,0
365,Nishihara,JP,2020-04-19 01:15:11,26.18,127.76,77.0,88,75,12.75,broken clouds,0,0
366,Konevo,RU,2020-04-19 01:15:11,62.12,39.32,30.87,97,83,3.29,broken clouds,0,0
367,Bela,IN,2020-04-19 01:15:11,25.93,81.98,82.83,24,16,2.3,few clouds,0,0
368,Kisanga,TZ,2020-04-19 01:15:12,-7.44,37.7,71.85,88,98,2.71,light rain,0,0
369,Monster,NL,2020-04-19 01:15:12,52.03,4.17,51.01,90,100,5.99,moderate rain,0,0
370,Zhigansk,RU,2020-04-19 01:15:13,66.77,123.37,6.26,92,72,12.37,broken clouds,0,0
371,Port Macquarie,AU,2020-04-19 01:15:14,-31.43,152.92,73.99,69,54,5.19,broken clouds,0,0
372,Niigata,JP,2020-04-19 01:15:15,37.9,139.02,53.6,81,75,9.17,broken clouds,0,0
373,Talnakh,RU,2020-04-19 01:15:15,69.49,88.4,35.6,74,100,35.79,overcast clouds,0,0
374,Alpena,US,2020-04-19 01:15:16,45.06,-83.43,51.8,40,20,18.34,few clouds,0,0
375,General Pico,AR,2020-04-19 01:15:16,-35.66,-63.76,66.49,41,6,13.96,clear sky,0,0
376,Bukama,CD,2020-04-19 01:15:17,-9.2,25.85,70.16,77,99,0.87,light rain,0,0
377,Turan,VN,2020-04-19 01:15:18,16.07,108.22,82.4,88,20,3.36,mist,0,0
378,Oktyabrskiy,RU,2020-04-19 01:15:20,54.48,53.47,34.0,84,12,6.31,few clouds,0,0
379,Clarksville,US,2020-04-19 01:15:25,36.53,-87.36,57.2,41,1,1.05,clear sky,0,0
380,Anloga,GH,2020-04-19 01:15:25,5.79,0.9,83.03,79,4,10.92,light rain,0,0
381,Bara,NG,2020-04-19 01:15:26,10.37,10.73,83.79,11,97,3.49,overcast clouds,0,0
382,Hobyo,SO,2020-04-19 01:15:27,5.35,48.53,83.71,72,90,8.95,light rain,0,0
383,Magadi,IN,2020-04-19 01:15:27,12.97,77.23,71.44,57,0,1.88,clear sky,0,0
384,Isangel,VU,2020-04-19 01:15:27,-19.55,169.27,82.4,78,75,11.41,broken clouds,0,0
385,Tsabong,BW,2020-04-19 01:15:28,-26.02,22.4,77.16,28,36,11.77,scattered clouds,0,0
386,Utmanzai,PK,2020-04-19 01:15:28,34.19,71.76,59.0,82,40,4.7,haze,0,0
387,Jutai,BR,2020-04-19 01:11:09,-5.18,-68.9,75.27,78,44,0.43,scattered clouds,0,0
388,Amapa,BR,2020-04-19 01:15:29,1.0,-52.0,74.71,89,67,2.08,light rain,0,0
389,San Quintin,MX,2020-04-19 01:15:30,30.48,-115.95,62.28,67,0,19.28,clear sky,0,0
390,Broken Hill,AU,2020-04-19 01:12:53,-31.95,141.43,62.6,55,6,4.7,clear sky,0,0
391,Salta,AR,2020-04-19 01:15:30,-24.79,-65.41,60.8,87,9,4.7,clear sky,0,0
392,Sfantu Gheorghe,RO,2020-04-19 01:15:31,45.87,25.78,46.0,84,88,1.01,overcast clouds,0,0
393,Tabuk,PH,2020-04-19 01:15:31,17.42,121.44,80.19,72,95,7.02,overcast clouds,0,0
394,Maldonado,UY,2020-04-19 01:15:32,-34.67,-54.92,64.4,82,0,5.82,clear sky,0,0
395,Yarim,YE,2020-04-19 01:10:56,14.3,44.38,58.53,39,85,0.56,moderate rain,0,0
396,Zehdenick,DE,2020-04-19 01:15:34,52.98,13.33,43.0,56,86,9.8,overcast clouds,0,0
397,Angoram,PG,2020-04-19 01:15:35,-4.06,144.07,82.83,84,100,1.21,light rain,0,0
398,Porto Novo,BJ,2020-04-19 01:15:36,6.5,2.6,82.4,94,40,10.29,scattered clouds,0,0
399,Rodrigues Alves,BR,2020-04-19 01:15:36,-7.74,-72.65,72.27,69,21,1.05,few clouds,0,0
400,Rocha,UY,2020-04-19 01:15:37,-34.48,-54.33,60.37,93,1,6.44,clear sky,0,0
401,Moyale,KE,2020-04-19 01:15:37,3.52,39.06,68.9,64,100,1.41,light rain,0,0
402,Rio Do Sul,BR,2020-04-19 01:15:38,-27.21,-49.64,62.01,92,30,2.15,scattered clouds,0,0
403,Necochea,AR,2020-04-19 01:15:38,-38.55,-58.74,64.99,79,25,11.01,scattered clouds,0,0
404,Beaufort,MY,2020-04-19 01:15:39,5.35,115.75,82.4,83,75,3.36,broken clouds,0,0
405,Rawson,AR,2020-04-19 01:15:39,-43.3,-65.1,69.31,54,88,9.24,overcast clouds,0,0
406,Marienburg,PL,2020-04-19 01:15:40,54.04,19.03,32.0,86,0,5.23,clear sky,0,0
407,Skagen,DK,2020-04-19 01:15:41,57.72,10.58,43.0,75,0,4.0,clear sky,0,0
408,Moussoro,TD,2020-04-19 01:15:41,13.64,16.49,82.72,13,4,12.59,clear sky,0,0
409,Florianopolis,BR,2020-04-19 01:15:41,-27.61,-48.5,68.0,77,20,2.24,few clouds,0,0
410,Srednekolymsk,RU,2020-04-19 01:15:42,67.45,153.68,2.01,89,82,11.39,broken clouds,0,0
411,Sabang,ID,2020-04-19 01:15:42,5.89,95.32,82.94,72,76,4.03,broken clouds,0,0
412,San Isidro,PE,2020-04-19 01:15:43,-12.12,-77.05,69.8,77,12,11.41,few clouds,0,0
413,Douentza,ML,2020-04-19 01:15:43,15.0,-2.95,84.24,21,91,2.21,overcast clouds,0,0
414,Quatre Cocos,MU,2020-04-19 01:15:44,-20.21,57.76,77.0,78,75,13.87,shower rain,0,0
415,La Rioja,ES,2020-04-19 01:15:44,42.25,-2.5,51.8,100,20,3.36,few clouds,0,0
416,Vershino-Shakhtaminskiy,RU,2020-04-19 01:15:45,51.3,117.89,20.71,81,100,10.63,overcast clouds,0,0
417,Yerbogachen,RU,2020-04-19 01:15:45,61.28,108.01,15.89,87,49,7.36,scattered clouds,0,0
418,Ixtapa,MX,2020-04-19 01:15:46,20.7,-105.2,75.2,78,90,9.17,overcast clouds,0,0
419,Beloha,MG,2020-04-19 01:15:47,-25.17,45.05,70.66,83,6,12.28,clear sky,0,0
420,Abilene,US,2020-04-19 01:12:03,32.45,-99.73,64.4,68,20,10.29,few clouds,0,0
421,Okhotsk,RU,2020-04-19 01:15:47,59.38,143.3,14.97,84,2,13.13,clear sky,0,0
422,Hangu,CN,2020-04-19 01:15:48,39.25,117.79,62.6,48,99,4.47,overcast clouds,0,0
423,Laredo,US,2020-04-19 01:15:48,27.51,-99.51,75.2,83,90,10.29,overcast clouds,0,0
424,Mezhdurechenskiy,RU,2020-04-19 01:15:49,59.6,65.93,35.6,84,18,9.78,few clouds,0,0
425,Tilichiki,RU,2020-04-19 01:15:50,60.47,166.1,10.78,91,0,10.83,clear sky,0,0
426,Karpogory,RU,2020-04-19 01:15:50,64.0,44.45,27.34,98,12,2.1,few clouds,0,0
427,Balakhta,RU,2020-04-19 01:15:51,55.38,91.6,36.28,73,8,9.08,clear sky,0,0
428,Wichita Falls,US,2020-04-19 01:14:40,33.91,-98.49,60.8,59,90,9.17,overcast clouds,0,0
429,Onguday,RU,2020-04-19 01:15:52,50.75,86.15,40.01,49,0,1.43,clear sky,0,0
430,Ternate,ID,2020-04-19 01:15:52,0.8,127.4,84.36,72,33,2.89,light rain,0,0
431,Wagar,SD,2020-04-19 01:15:53,16.15,36.2,71.28,50,38,6.44,scattered clouds,0,0
432,Laguna,US,2020-04-19 01:15:55,38.42,-121.42,66.2,52,1,10.29,clear sky,0,0
433,Mackay,AU,2020-04-19 01:15:24,-21.15,149.2,84.0,74,40,9.17,scattered clouds,0,0
434,Kholm-Zhirkovskiy,RU,2020-04-19 01:15:56,55.52,33.47,33.24,84,97,8.14,overcast clouds,0,0
435,Waseca,US,2020-04-19 01:15:56,44.08,-93.51,55.99,47,1,14.99,clear sky,0,0
436,Baykit,RU,2020-04-19 01:15:57,61.67,96.37,24.22,92,0,0.96,clear sky,0,0
437,Nalut,LY,2020-04-19 01:15:57,30.33,10.85,75.79,20,42,23.44,scattered clouds,0,0
438,Terme,TR,2020-04-19 01:15:58,41.21,36.97,44.6,87,2,1.12,clear sky,0,0
439,Sao Joao Da Barra,BR,2020-04-19 01:15:58,-21.64,-41.05,71.96,81,96,8.16,overcast clouds,0,0
440,Umm Lajj,SA,2020-04-19 01:15:58,25.02,37.27,71.06,55,62,6.69,broken clouds,0,0
441,Maues,BR,2020-04-19 01:15:59,-3.38,-57.72,75.36,95,89,1.36,light rain,0,0
442,Kalmunai,LK,2020-04-19 01:16:00,7.42,81.82,81.57,78,63,5.46,broken clouds,0,0
443,Whitehorse,CA,2020-04-19 01:15:30,60.72,-135.05,60.8,23,20,8.05,few clouds,0,0
444,Umm Kaddadah,SD,2020-04-19 01:14:09,13.6,26.69,78.19,16,99,13.8,overcast clouds,0,0
445,Qui Nhon,VN,2020-04-19 01:13:46,13.77,109.23,78.75,82,64,5.41,broken clouds,0,0
446,Kalakamati,BW,2020-04-19 01:16:02,-20.59,27.31,62.8,61,14,13.47,few clouds,0,0
447,Plouzane,FR,2020-04-19 01:16:03,48.38,-4.62,51.8,93,0,3.36,fog,0,0
448,Hay River,CA,2020-04-19 01:13:14,60.82,-115.8,48.2,39,75,12.75,broken clouds,0,0
449,Pomabamba,PE,2020-04-19 01:16:04,-8.83,-77.47,49.69,30,88,5.55,light rain,0,0
450,Muzaffarabad,PK,2020-04-19 01:16:04,34.37,73.47,56.12,43,36,8.25,scattered clouds,0,0
451,Batangafo,CF,2020-04-19 01:16:06,7.3,18.28,78.57,59,68,5.5,broken clouds,0,0
452,Shahpur,IN,2020-04-19 01:16:06,16.7,76.83,80.58,41,46,3.04,scattered clouds,0,0
453,Lavrentiya,RU,2020-04-19 01:16:07,65.58,-171.0,20.88,95,100,9.64,light snow,0,0
454,Teguise,ES,2020-04-19 01:16:07,29.06,-13.56,64.4,72,1,8.05,clear sky,0,0
455,Pevek,RU,2020-04-19 01:16:08,69.7,170.31,3.22,91,30,7.29,scattered clouds,0,0
456,Jalali,IN,2020-04-19 01:16:08,27.87,78.27,77.2,33,62,5.21,broken clouds,0,0
457,Petropavlovsk-Kamchatskiy,RU,2020-04-19 01:16:09,53.05,158.65,44.6,45,20,22.37,few clouds,0,0
458,Usinsk,RU,2020-04-19 01:16:10,65.99,57.53,29.62,98,99,3.74,overcast clouds,0,0
459,Aquin,HT,2020-04-19 01:16:10,18.28,-73.4,80.28,77,9,1.1,light rain,0,0
460,Constantine,DZ,2020-04-19 01:16:11,36.37,6.61,62.6,67,40,6.93,scattered clouds,0,0
461,Ust-Nera,RU,2020-04-19 01:16:11,64.57,143.2,0.82,76,91,6.4,overcast clouds,0,0
462,Kiunga,PG,2020-04-19 01:16:12,-6.12,141.29,78.48,88,99,0.47,overcast clouds,0,0
463,Tramore,IE,2020-04-19 01:16:12,52.16,-7.15,48.0,92,75,5.01,light rain,0,0
464,Cedar City,US,2020-04-19 01:14:45,37.68,-113.06,48.2,70,90,8.05,moderate rain,0,0
465,Thomaston,US,2020-04-19 01:16:13,32.89,-84.33,62.6,45,1,3.71,clear sky,0,0
466,Dergachi,RU,2020-04-19 01:16:14,51.23,48.77,38.28,83,0,7.07,clear sky,0,0
467,Smolensk,RU,2020-04-19 01:16:14,55.0,33.0,35.46,88,93,7.4,overcast clouds,0,0
468,Russell,US,2020-04-19 01:16:15,32.35,-85.2,75.2,63,1,4.47,clear sky,0,0
469,Raga,SS,2020-04-19 01:16:15,8.46,25.68,74.62,26,74,4.38,broken clouds,0,0
470,Gornopravdinsk,RU,2020-04-19 01:16:16,60.05,69.9,40.5,83,81,7.85,broken clouds,0,0
471,Okulovka,RU,2020-04-19 01:16:16,58.4,33.29,32.95,92,100,5.32,light snow,0,0
472,Mwene-Ditu,CD,2020-04-19 01:16:17,-7.0,23.45,66.79,76,87,6.13,light rain,0,0
473,Imbituba,BR,2020-04-19 01:16:18,-28.24,-48.67,68.0,77,20,2.24,few clouds,0,0
474,Boyabat,TR,2020-04-19 01:16:19,41.47,34.77,51.03,51,1,1.66,clear sky,0,0
475,Neuquen,AR,2020-04-19 01:16:20,-38.95,-68.06,77.0,41,81,9.17,broken clouds,0,0
476,Harindanga,IN,2020-04-19 01:16:21,22.04,88.32,77.0,83,20,9.17,haze,0,0
477,Ustka,PL,2020-04-19 01:16:22,54.58,16.86,36.07,81,0,5.97,clear sky,0,0
478,Semey,KZ,2020-04-19 01:16:22,50.41,80.23,35.6,60,0,4.47,clear sky,0,0
479,Leh,IN,2020-04-19 01:16:23,34.17,77.58,31.32,20,84,3.44,broken clouds,0,0
480,Tabas,IR,2020-04-19 01:16:23,33.6,56.92,66.2,45,91,2.24,overcast clouds,0,0
481,Asau,RO,2020-04-19 01:16:24,46.43,26.4,41.0,64,34,2.24,scattered clouds,0,0
482,Bosaso,SO,2020-04-19 01:16:24,11.28,49.18,82.9,74,58,4.83,broken clouds,0,0
483,Mangrol,IN,2020-04-19 01:16:25,21.12,70.12,79.11,68,19,10.8,few clouds,0,0
484,Dandong,CN,2020-04-19 01:16:25,40.13,124.39,56.3,62,100,9.24,overcast clouds,0,0
485,Mega,ET,2020-04-19 01:16:26,4.05,38.3,61.05,62,99,4.27,light rain,0,0
486,San Ramon,US,2020-04-19 01:15:45,37.78,-121.98,63.0,55,1,11.41,clear sky,0,0
487,Marechal Candido Rondon,BR,2020-04-19 01:15:40,-24.56,-54.06,62.53,65,1,1.12,clear sky,0,0
488,Sukumo,JP,2020-04-19 01:16:28,32.93,132.73,60.19,58,69,8.05,broken clouds,0,0
489,Carlos Chagas,BR,2020-04-19 01:16:28,-17.7,-40.77,68.68,84,78,6.02,broken clouds,0,0
490,Pacific Grove,US,2020-04-19 01:16:29,36.62,-121.92,59.0,76,28,1.99,scattered clouds,0,0
491,Taozhuang,CN,2020-04-19 01:16:30,34.85,117.33,50.94,84,100,6.6,light rain,0,0
492,Ampanihy,MG,2020-04-19 01:16:31,-24.7,44.75,68.56,82,1,4.99,clear sky,0,0
493,Byron Bay,AU,2020-04-19 01:12:30,-28.65,153.62,73.4,78,16,10.29,light rain,0,0
494,Nichinan,JP,2020-04-19 01:16:32,31.6,131.37,60.8,67,75,3.36,broken clouds,0,0
495,Bambanglipuro,ID,2020-04-19 01:16:32,-7.95,110.28,79.83,79,87,3.56,light rain,0,0
496,Banda Aceh,ID,2020-04-19 01:16:33,5.56,95.32,79.48,78,81,3.71,broken clouds,0,0
497,Rio Gallegos,AR,2020-04-19 01:16:33,-51.62,-69.22,53.6,37,55,21.92,broken clouds,0,0
498,Irtyshskiy,RU,2020-04-19 01:16:33,58.33,68.13,39.76,82,85,6.6,overcast clouds,0,0
499,Amur,RU,2020-04-19 01:16:34,54.0,128.0,20.41,92,100,13.0,snow,0,0
500,Basco,PH,2020-04-19 01:16:34,20.45,121.97,79.11,87,91,17.98,overcast clouds,0,0
501,Dzhebariki-Khaya,RU,2020-04-19 01:16:35,62.22,135.8,9.82,88,55,2.15,broken clouds,0,0
502,Narrabri,AU,2020-04-19 01:16:35,-30.32,149.78,66.0,48,0,3.36,clear sky,0,0
503,Kali,CO,2020-04-19 01:15:36,3.44,-76.52,68.0,94,75,2.24,light intensity drizzle,0,0
504,Sangin,AF,2020-04-19 01:16:36,32.07,64.84,62.56,30,66,1.57,broken clouds,0,0
505,Ulaangom,MN,2020-04-19 01:16:37,49.98,92.07,34.77,49,0,2.26,clear sky,0,0
506,Yeniseysk,RU,2020-04-19 01:16:37,58.45,92.17,32.25,89,15,8.86,few clouds,0,0
507,Ailigandi,PA,2020-04-19 01:16:38,9.23,-78.02,79.05,80,89,8.97,overcast clouds,0,0
508,Kamogawa,JP,2020-04-19 01:16:38,35.1,140.1,62.64,52,7,18.16,clear sky,0,0
509,Soyo,AO,2020-04-19 01:16:39,-6.13,12.37,78.93,80,99,1.19,overcast clouds,0,0
510,Wanlaweyn,SO,2020-04-19 01:16:40,2.62,44.89,81.36,75,92,6.51,overcast clouds,0,0
511,Maryville,US,2020-04-19 01:11:45,35.76,-83.97,55.4,43,1,4.7,clear sky,0,0
512,Sao Filipe,CV,2020-04-19 01:14:04,14.9,-24.5,71.62,73,32,19.95,scattered clouds,0,0
513,Wanning,CN,2020-04-19 01:16:41,18.8,110.4,78.26,83,3,9.95,clear sky,0,0
514,North Platte,US,2020-04-19 01:13:49,41.12,-100.77,68.0,19,1,4.7,clear sky,0,0
515,Paita,PE,2020-04-19 01:16:42,-5.09,-81.11,75.9,68,4,11.45,clear sky,0,0
516,Suez,EG,2020-04-19 01:16:42,29.97,32.53,64.56,71,23,11.36,few clouds,0,0
517,Fort Nelson,CA,2020-04-19 01:16:43,58.81,-122.7,60.8,26,40,12.75,scattered clouds,0,0
518,Wewak,PG,2020-04-19 01:16:44,-3.55,143.63,84.63,67,79,1.36,light rain,0,0
519,Ambunti,PG,2020-04-19 01:16:44,-4.24,142.84,85.73,70,82,0.36,broken clouds,0,0
520,Alice Springs,AU,2020-04-19 01:16:44,-23.7,133.88,77.0,29,13,8.05,few clouds,0,0
521,Chulumani,BO,2020-04-19 01:16:45,-16.41,-67.53,58.75,49,30,1.16,light rain,0,0
522,Coquimbo,CL,2020-04-19 01:13:31,-29.95,-71.34,59.0,87,75,4.7,broken clouds,0,0
523,Tahta,EG,2020-04-19 01:16:46,26.77,31.5,64.4,55,0,4.7,clear sky,0,0
524,Flinders,AU,2020-04-19 01:16:46,-34.58,150.86,69.01,68,73,5.5,light rain,0,0
525,Puerto Carreno,CO,2020-04-19 01:16:47,6.19,-67.49,78.01,85,100,13.6,moderate rain,0,0
526,San Jose De Guanipa,VE,2020-04-19 01:16:47,8.89,-64.17,87.4,37,75,9.98,broken clouds,0,0
527,Bay Roberts,CA,2020-04-19 01:16:48,47.6,-53.26,30.99,73,9,6.69,clear sky,0,0
528,Nizhniy Odes,RU,2020-04-19 01:16:48,63.64,54.86,32.36,92,100,2.91,overcast clouds,0,0
529,Sambava,MG,2020-04-19 01:16:18,-14.27,50.17,73.29,86,63,9.26,light rain,0,0
530,Namibe,AO,2020-04-19 01:16:50,-15.2,12.15,75.09,69,58,6.04,light rain,0,0
531,Humberto De Campos,BR,2020-04-19 01:16:50,-2.6,-43.46,77.36,86,100,2.68,overcast clouds,0,0
532,Sumbe,AO,2020-04-19 01:16:51,-11.21,13.84,78.12,89,99,5.06,overcast clouds,0,0
533,Aldan,RU,2020-04-19 01:16:51,58.6,125.39,10.38,86,97,8.23,overcast clouds,0,0
534,Caramay,PH,2020-04-19 01:16:51,10.18,119.24,85.75,68,10,9.73,light rain,0,0
535,Warwick,US,2020-04-19 01:11:57,41.7,-71.42,39.99,86,90,8.05,overcast clouds,0,0
536,Kushiro,JP,2020-04-19 01:16:02,42.98,144.37,46.4,70,75,5.82,broken clouds,0,0
537,Zhangjiakou,CN,2020-04-19 01:16:53,40.81,114.88,49.6,50,100,5.48,light rain,0,0
538,Yangjiang,CN,2020-04-19 01:16:53,21.85,111.97,80.01,67,92,5.77,light rain,0,0
539,Eureka,US,2020-04-19 01:13:27,40.8,-124.16,55.0,76,92,5.1,overcast clouds,0,0
540,Atagay,RU,2020-04-19 01:16:54,55.1,99.39,30.11,83,23,2.89,few clouds,0,0
541,Inhambane,MZ,2020-04-19 01:16:56,-23.86,35.38,74.26,78,35,12.86,scattered clouds,0,0
542,Toora-Khem,RU,2020-04-19 01:16:56,52.47,96.11,33.28,59,0,1.61,clear sky,0,0
543,Mier,MX,2020-04-19 01:16:56,26.43,-99.15,81.0,73,1,4.7,clear sky,0,0
544,San Juan De Los Morros,VE,2020-04-19 01:16:57,9.91,-67.35,78.75,50,82,3.76,broken clouds,0,0
545,Goderich,CA,2020-04-19 01:14:02,43.75,-81.72,48.99,57,47,18.28,scattered clouds,0,0
546,Sandakan,MY,2020-04-19 01:16:58,5.84,118.12,80.6,88,40,4.7,scattered clouds,0,0
547,Ajdabiya,LY,2020-04-19 01:16:58,30.76,20.23,62.53,51,21,9.24,few clouds,0,0
548,Baker City,US,2020-04-19 01:16:59,44.77,-117.83,62.6,27,90,14.99,overcast clouds,0,0
549,La Primavera,CO,2020-04-19 01:17:00,5.49,-70.41,80.67,73,73,4.45,moderate rain,0,0
550,Xinglongshan,CN,2020-04-19 01:17:01,43.96,125.47,53.6,46,100,13.42,smoke,0,0
551,Severo-Yeniseyskiy,RU,2020-04-19 01:14:35,60.37,93.04,26.69,91,33,4.65,scattered clouds,0,0
552,Beira,MZ,2020-04-19 01:17:05,-19.84,34.84,75.13,84,12,12.15,light rain,0,0
553,Kitimat,CA,2020-04-19 01:17:05,54.05,-128.65,66.2,34,20,10.29,few clouds,0,0
554,Burnie,AU,2020-04-19 01:17:06,-41.07,145.92,57.99,66,79,5.99,broken clouds,0,0
555,Xianshuigu,CN,2020-04-19 01:17:06,38.98,117.38,62.6,48,100,4.47,overcast clouds,0,0
556,Nikolayevka,RU,2020-04-19 01:17:07,53.13,47.2,33.78,83,0,6.15,clear sky,0,0
557,Dehui,CN,2020-04-19 01:17:07,44.53,125.7,53.6,46,100,13.42,smoke,0,0
558,Darhan,MN,2020-04-19 01:17:09,49.49,105.92,37.94,52,82,11.05,broken clouds,0,0
559,Labelle,US,2020-04-19 01:16:48,26.76,-81.44,80.6,69,1,4.7,clear sky,0,0
560,Kemijarvi,FI,2020-04-19 01:17:09,66.71,27.43,25.9,96,20,5.39,few clouds,0,0
561,Nyagan,RU,2020-04-19 01:17:10,62.14,65.39,36.21,87,98,10.18,light rain,0,0
562,Nevel,RU,2020-04-19 01:17:10,56.02,29.93,35.26,80,100,7.94,light snow,0,0
563,Vila Velha,BR,2020-04-19 01:17:11,-20.33,-40.29,75.2,78,75,11.41,broken clouds,0,0
564,Katsuura,JP,2020-04-19 01:17:11,35.13,140.3,66.0,49,15,21.14,few clouds,0,0
565,Novomyrhorod,UA,2020-04-19 01:17:14,48.78,31.64,42.44,58,90,0.98,overcast clouds,0,0
566,Khilok,RU,2020-04-19 01:17:18,51.37,110.47,27.05,69,96,9.55,overcast clouds,0,0
567,Fuerte Olimpo,PY,2020-04-19 01:17:18,-21.04,-57.87,69.85,51,9,0.63,clear sky,0,0
568,Abha,SA,2020-04-19 01:17:19,18.22,42.51,62.6,87,20,3.58,few clouds,0,0
569,Cockburn Town,TC,2020-04-19 01:13:54,21.46,-71.14,78.6,81,42,14.81,scattered clouds,0,0
